<?xml version="1.0" encoding="UTF-8"?>
<kml xmlns="http://earth.google.com/kml/2.0" xmlns:atom="http://www.w3.org/2005/Atom">
    <Document>
        <name>2012 Earthquakes, Magnitude 5</name>
        <atom:author>
            <atom:name>U.S. Geological Survey</atom:name>
        </atom:author>
        <atom:link href="http://earthquake.usgs.gov"/>
        <Folder>
            <name>Magnitude 5</name>
            <Placemark id="2012 Jan 15 13:40:16.40 UTC">
                <name>M 5.9 - 2012 Jan 15, SOUTH SHETLAND ISLANDS</name>
                <magnitude>5.9</magnitude>
                <Point>
                    <coordinates>-56.072,-60.975,0</coordinates>
                </Point>
            </Placemark>
            <Placemark id="2012 Jan 19 06:48:48.75 UTC">
                <name>M 5.9 - 2012 Jan 19, OFF W. COAST OF S. ISLAND, N.Z.</name>
                <magnitude>5.9</magnitude>
                <Point>
                    <coordinates>165.778,-46.686,0</coordinates>
                </Point>
            </Placemark>
            <Placemark id="2012 Jan 28 17:42:51.72 UTC">
                <name>M 5.9 - 2012 Jan 28, KERMADEC ISLANDS, NEW ZEALAND</name>
                <magnitude>5.9</magnitude>
                <Point>
                    <coordinates>-177.386,-29.43,0</coordinates>
                </Point>
            </Placemark>
            <Placemark id="2012 Feb 9 18:52:48.39 UTC">
                <name>M 5.9 - 2012 Feb 9, MACQUARIE ISLAND REGION</name>
                <magnitude>5.9</magnitude>
                <Point>
                    <coordinates>157.837,-58.312,0</coordinates>
                </Point>
            </Placemark>
            <Placemark id="2012 Feb 10 01:47:34.19 UTC">
                <name>M 5.9 - 2012 Feb 10, FIJI REGION</name>
                <magnitude>5.9</magnitude>
                <Point>
                    <coordinates>-178.549,-17.968,0</coordinates>
                </Point>
            </Placemark>
            <Placemark id="2012 Feb 13 10:55:09.44 UTC">
                <name>M 5.9 - 2012 Feb 13, COSTA RICA</name>
                <magnitude>5.9</magnitude>
                <Point>
                    <coordinates>-84.121,9.183,0</coordinates>
                </Point>
            </Placemark>
            <Placemark id="2012 Feb 26 02:35:00.53 UTC">
                <name>M 5.9 - 2012 Feb 26, TAIWAN</name>
                <magnitude>5.9</magnitude>
                <Point>
                    <coordinates>120.891,22.661,0</coordinates>
                </Point>
            </Placemark>
            <Placemark id="2012 Mar 8 22:50:08.41 UTC">
                <name>M 5.9 - 2012 Mar 8, SOUTHERN XINJIANG, CHINA</name>
                <magnitude>5.9</magnitude>
                <Point>
                    <coordinates>81.307,39.383,0</coordinates>
                </Point>
            </Placemark>
            <Placemark id="2012 Mar 19 23:46:35.40 UTC">
                <name>M 5.9 - 2012 Mar 19, SAMOA ISLANDS REGION</name>
                <magnitude>5.9</magnitude>
                <Point>
                    <coordinates>-175.702,-14.621,0</coordinates>
                </Point>
            </Placemark>
            <Placemark id="2012 Apr 11 09:01:06.75 UTC">
                <name>M 5.9 - 2012 Apr 11, NORTH INDIAN OCEAN</name>
                <magnitude>5.9</magnitude>
                <Point>
                    <coordinates>89.441,2.199,0</coordinates>
                </Point>
            </Placemark>
            <Placemark id="2012 Apr 20 22:28:59.18 UTC">
                <name>M 5.9 - 2012 Apr 20, OFF W COAST OF NORTHERN SUMATRA</name>
                <magnitude>5.9</magnitude>
                <Point>
                    <coordinates>93.821,3.269,0</coordinates>
                </Point>
            </Placemark>
            <Placemark id="2012 May 10 02:13:56.16 UTC">
                <name>M 5.9 - 2012 May 10, EASTER ISLAND REGION</name>
                <magnitude>5.9</magnitude>
                <Point>
                    <coordinates>-112.587,-28.73,0</coordinates>
                </Point>
            </Placemark>
            <Placemark id="2012 May 19 19:05:18.97 UTC">
                <name>M 5.9 - 2012 May 19, OFF EAST COAST OF HONSHU, JAPAN</name>
                <magnitude>5.9</magnitude>
                <Point>
                    <coordinates>143.311,39.665,0</coordinates>
                </Point>
            </Placemark>
            <Placemark id="2012 May 23 15:02:25.31 UTC">
                <name>M 5.9 - 2012 May 23, HOKKAIDO, JAPAN REGION</name>
                <magnitude>5.9</magnitude>
                <Point>
                    <coordinates>142.082,41.335,0</coordinates>
                </Point>
            </Placemark>
            <Placemark id="2012 May 23 23:19:18.05 UTC">
                <name>M 5.9 - 2012 May 23, WESTERN INDIAN-ANTARCTIC RIDGE</name>
                <magnitude>5.9</magnitude>
                <Point>
                    <coordinates>139.536,-50.352,0</coordinates>
                </Point>
            </Placemark>
            <Placemark id="2012 May 28 21:47:09.40 UTC">
                <name>M 5.9 - 2012 May 28, TONGA</name>
                <magnitude>5.9</magnitude>
                <Point>
                    <coordinates>-175.976,-19.962,0</coordinates>
                </Point>
            </Placemark>
            <Placemark id="2012 Jun 2 07:52:53.99 UTC">
                <name>M 5.9 - 2012 Jun 2, SALTA, ARGENTINA</name>
                <magnitude>5.9</magnitude>
                <Point>
                    <coordinates>-63.555,-22.059,0</coordinates>
                </Point>
            </Placemark>
            <Placemark id="2012 Jun 4 11:18:13.45 UTC">
                <name>M 5.9 - 2012 Jun 4, JAVA, INDONESIA</name>
                <magnitude>5.9</magnitude>
                <Point>
                    <coordinates>106.371,-7.692,0</coordinates>
                </Point>
            </Placemark>
            <Placemark id="2012 Jun 9 21:00:18.07 UTC">
                <name>M 5.9 - 2012 Jun 9, TAIWAN REGION</name>
                <magnitude>5.9</magnitude>
                <Point>
                    <coordinates>122.248,24.572,0</coordinates>
                </Point>
            </Placemark>
            <Placemark id="2012 Jun 16 22:18:47.47 UTC">
                <name>M 5.9 - 2012 Jun 16, LUZON, PHILIPPINES</name>
                <magnitude>5.9</magnitude>
                <Point>
                    <coordinates>119.563,15.593,0</coordinates>
                </Point>
            </Placemark>
            <Placemark id="2012 Jul 18 04:25:25.60 UTC">
                <name>M 5.9 - 2012 Jul 18, PACIFIC-ANTARCTIC RIDGE</name>
                <magnitude>5.9</magnitude>
                <Point>
                    <coordinates>-128.893,-55.661,0</coordinates>
                </Point>
            </Placemark>
            <Placemark id="2012 Jul 18 08:09:46.20 UTC">
                <name>M 5.9 - 2012 Jul 18, FIJI REGION</name>
                <magnitude>5.9</magnitude>
                <Point>
                    <coordinates>-178.508,-20.872,0</coordinates>
                </Point>
            </Placemark>
            <Placemark id="2012 Jul 21 06:11:57.91 UTC">
                <name>M 5.9 - 2012 Jul 21, VANUATU REGION</name>
                <magnitude>5.9</magnitude>
                <Point>
                    <coordinates>173.789,-19.19,0</coordinates>
                </Point>
            </Placemark>
            <Placemark id="2012 Jul 29 12:22:11.81 UTC">
                <name>M 5.9 - 2012 Jul 29, OFFSHORE GUATEMALA</name>
                <magnitude>5.9</magnitude>
                <Point>
                    <coordinates>-92.294,14.191,0</coordinates>
                </Point>
            </Placemark>
            <Placemark id="2012 Aug 8 10:57:44.30 UTC">
                <name>M 5.9 - 2012 Aug 8, FIJI</name>
                <magnitude>5.9</magnitude>
                <Point>
                    <coordinates>178.062,-16.02,0</coordinates>
                </Point>
            </Placemark>
            <Placemark id="2012 Aug 25 14:16:17.08 UTC">
                <name>M 5.9 - 2012 Aug 25, HOKKAIDO, JAPAN REGION</name>
                <magnitude>5.9</magnitude>
                <Point>
                    <coordinates>142.913,42.419,0</coordinates>
                </Point>
            </Placemark>
            <Placemark id="2012 Sep 9 05:39:37.05 UTC">
                <name>M 5.9 - 2012 Sep 9, KURIL ISLANDS</name>
                <magnitude>5.9</magnitude>
                <Point>
                    <coordinates>155.75,49.247,0</coordinates>
                </Point>
            </Placemark>
            <Placemark id="2012 Sep 11 16:36:49.84 UTC">
                <name>M 5.9 - 2012 Sep 11, SOUTH OF MARIANA ISLANDS</name>
                <magnitude>5.9</magnitude>
                <Point>
                    <coordinates>143.218,11.838,0</coordinates>
                </Point>
            </Placemark>
            <Placemark id="2012 Oct 8 06:26:23.02 UTC">
                <name>M 5.9 - 2012 Oct 8, GULF OF CALIFORNIA</name>
                <magnitude>5.9</magnitude>
                <Point>
                    <coordinates>-109.574,25.127,0</coordinates>
                </Point>
            </Placemark>
            <Placemark id="2012 Oct 18 01:27:16.02 UTC">
                <name>M 5.9 - 2012 Oct 18, WEST OF MACQUARIE ISLAND</name>
                <magnitude>5.9</magnitude>
                <Point>
                    <coordinates>144.006,-54.217,0</coordinates>
                </Point>
            </Placemark>
            <Placemark id="2012 Oct 23 08:53:38.24 UTC">
                <name>M 5.9 - 2012 Oct 23, IZU ISLANDS, JAPAN REGION</name>
                <magnitude>5.9</magnitude>
                <Point>
                    <coordinates>139.251,29.057,0</coordinates>
                </Point>
            </Placemark>
            <Placemark id="2012 Nov 15 08:21:48.45 UTC">
                <name>M 5.9 - 2012 Nov 15, BISMARCK SEA</name>
                <magnitude>5.9</magnitude>
                <Point>
                    <coordinates>148.27,-3.109,0</coordinates>
                </Point>
            </Placemark>
            <Placemark id="2012 Nov 17 05:12:56.77 UTC">
                <name>M 5.9 - 2012 Nov 17, TONGA REGION</name>
                <magnitude>5.9</magnitude>
                <Point>
                    <coordinates>-172.32,-18.381,0</coordinates>
                </Point>
            </Placemark>
            <Placemark id="2012 Nov 21 21:36:22.74 UTC">
                <name>M 5.9 - 2012 Nov 21, LIBERTADOR O'HIGGINS, CHILE</name>
                <magnitude>5.9</magnitude>
                <Point>
                    <coordinates>-71.868,-33.939,0</coordinates>
                </Point>
            </Placemark>
            <Placemark id="2012 Nov 22 13:07:10.42 UTC">
                <name>M 5.9 - 2012 Nov 22, SALTA, ARGENTINA</name>
                <magnitude>5.9</magnitude>
                <Point>
                    <coordinates>-63.571,-22.742,0</coordinates>
                </Point>
            </Placemark>
            <Placemark id="2012 Nov 29 11:10:21.67 UTC">
                <name>M 5.9 - 2012 Nov 29, NEAR N COAST OF NEW GUINEA, PNG.</name>
                <magnitude>5.9</magnitude>
                <Point>
                    <coordinates>145.562,-3.423,0</coordinates>
                </Point>
            </Placemark>
            <Placemark id="2012 Dec 17 17:41:32.30 UTC">
                <name>M 5.9 - 2012 Dec 17, CENTRAL EAST PACIFIC RISE</name>
                <magnitude>5.9</magnitude>
                <Point>
                    <coordinates>-104.495,-4.178,0</coordinates>
                </Point>
            </Placemark>
            <Placemark id="2012 Dec 27 00:37:08.83 UTC">
                <name>M 5.9 - 2012 Dec 27, OFFSHORE MAULE, CHILE</name>
                <magnitude>5.9</magnitude>
                <Point>
                    <coordinates>-73.255,-35.783,0</coordinates>
                </Point>
            </Placemark>
            <Placemark id="2012 Jan 14 16:36:21.04 UTC">
                <name>M 5.8 - 2012 Jan 14, BABUYAN ISL REGION, PHILIPPINES</name>
                <magnitude>5.8</magnitude>
                <Point>
                    <coordinates>121.156,19.202,0</coordinates>
                </Point>
            </Placemark>
            <Placemark id="2012 Jan 18 12:50:20.53 UTC">
                <name>M 5.8 - 2012 Jan 18, MOLUCCA SEA</name>
                <magnitude>5.8</magnitude>
                <Point>
                    <coordinates>126.829,-0.877,0</coordinates>
                </Point>
            </Placemark>
            <Placemark id="2012 Feb 4 07:40:12.80 UTC">
                <name>M 5.8 - 2012 Feb 4, TONGA</name>
                <magnitude>5.8</magnitude>
                <Point>
                    <coordinates>-174.035,-20.536,0</coordinates>
                </Point>
            </Placemark>
            <Placemark id="2012 Feb 6 11:33:36.98 UTC">
                <name>M 5.8 - 2012 Feb 6, NEGROS- CEBU REG, PHILIPPINES</name>
                <magnitude>5.8</magnitude>
                <Point>
                    <coordinates>123.08,9.821,0</coordinates>
                </Point>
            </Placemark>
            <Placemark id="2012 Feb 14 06:22:01.17 UTC">
                <name>M 5.8 - 2012 Feb 14, NEAR EAST COAST OF HONSHU, JAPAN</name>
                <magnitude>5.8</magnitude>
                <Point>
                    <coordinates>141.386,36.214,0</coordinates>
                </Point>
            </Placemark>
            <Placemark id="2012 Feb 15 03:31:20.61 UTC">
                <name>M 5.8 - 2012 Feb 15, OFF COAST OF OREGON</name>
                <magnitude>5.8</magnitude>
                <Point>
                    <coordinates>-127.518,43.625,0</coordinates>
                </Point>
            </Placemark>
            <Placemark id="2012 Feb 16 02:20:28.73 UTC">
                <name>M 5.8 - 2012 Feb 16, MAURITIUS - REUNION REGION</name>
                <magnitude>5.8</magnitude>
                <Point>
                    <coordinates>65.405,-17.839,0</coordinates>
                </Point>
            </Placemark>
            <Placemark id="2012 Mar 16 07:58:02.50 UTC">
                <name>M 5.8 - 2012 Mar 16, LEYTE, PHILIPPINES</name>
                <magnitude>5.8</magnitude>
                <Point>
                    <coordinates>125.633,10.037,0</coordinates>
                </Point>
            </Placemark>
            <Placemark id="2012 Mar 17 19:50:20.56 UTC">
                <name>M 5.8 - 2012 Mar 17, SOUTHERN EAST PACIFIC RISE</name>
                <magnitude>5.8</magnitude>
                <Point>
                    <coordinates>-107.644,-34.905,0</coordinates>
                </Point>
            </Placemark>
            <Placemark id="2012 Apr 10 05:09:08.41 UTC">
                <name>M 5.8 - 2012 Apr 10, NORTH OF ASCENSION ISLAND</name>
                <magnitude>5.8</magnitude>
                <Point>
                    <coordinates>-13.972,-1.261,0</coordinates>
                </Point>
            </Placemark>
            <Placemark id="2012 Apr 11 08:55:46.96 UTC">
                <name>M 5.8 - 2012 Apr 11, NORTH INDIAN OCEAN</name>
                <magnitude>5.8</magnitude>
                <Point>
                    <coordinates>91.748,1.271,0</coordinates>
                </Point>
            </Placemark>
            <Placemark id="2012 Apr 11 23:56:32.93 UTC">
                <name>M 5.8 - 2012 Apr 11, NORTH INDIAN OCEAN</name>
                <magnitude>5.8</magnitude>
                <Point>
                    <coordinates>89.685,1.841,0</coordinates>
                </Point>
            </Placemark>
            <Placemark id="2012 Apr 14 19:26:43.25 UTC">
                <name>M 5.8 - 2012 Apr 14, SUNDA STRAIT, INDONESIA</name>
                <magnitude>5.8</magnitude>
                <Point>
                    <coordinates>105.457,-6.81,0</coordinates>
                </Point>
            </Placemark>
            <Placemark id="2012 Apr 16 02:17:50.34 UTC">
                <name>M 5.8 - 2012 Apr 16, SULAWESI, INDONESIA</name>
                <magnitude>5.8</magnitude>
                <Point>
                    <coordinates>121.855,-2.64,0</coordinates>
                </Point>
            </Placemark>
            <Placemark id="2012 Apr 16 11:23:43.38 UTC">
                <name>M 5.8 - 2012 Apr 16, SOUTHERN GREECE</name>
                <magnitude>5.8</magnitude>
                <Point>
                    <coordinates>21.475,36.632,0</coordinates>
                </Point>
            </Placemark>
            <Placemark id="2012 Apr 20 23:14:31.37 UTC">
                <name>M 5.8 - 2012 Apr 20, OFF W COAST OF NORTHERN SUMATRA</name>
                <magnitude>5.8</magnitude>
                <Point>
                    <coordinates>93.36,2.158,0</coordinates>
                </Point>
            </Placemark>
            <Placemark id="2012 Apr 29 10:28:51.87 UTC">
                <name>M 5.8 - 2012 Apr 29, NEAR EAST COAST OF HONSHU, JAPAN</name>
                <magnitude>5.8</magnitude>
                <Point>
                    <coordinates>140.349,35.596,0</coordinates>
                </Point>
            </Placemark>
            <Placemark id="2012 May 2 12:17:59.36 UTC">
                <name>M 5.8 - 2012 May 2, WEST OF MACQUARIE ISLAND</name>
                <magnitude>5.8</magnitude>
                <Point>
                    <coordinates>143.836,-54.565,0</coordinates>
                </Point>
            </Placemark>
            <Placemark id="2012 May 19 08:35:10.70 UTC">
                <name>M 5.8 - 2012 May 19, ANTOFAGASTA, CHILE</name>
                <magnitude>5.8</magnitude>
                <Point>
                    <coordinates>-70.562,-25.729,0</coordinates>
                </Point>
            </Placemark>
            <Placemark id="2012 May 29 03:33:25.48 UTC">
                <name>M 5.8 - 2012 May 29, SOUTH OF FIJI ISLANDS</name>
                <magnitude>5.8</magnitude>
                <Point>
                    <coordinates>-179.61,-22.13,0</coordinates>
                </Point>
            </Placemark>
            <Placemark id="2012 May 29 07:00:03.00 UTC">
                <name>M 5.8 - 2012 May 29, NORTHERN ITALY</name>
                <magnitude>5.8</magnitude>
                <Point>
                    <coordinates>11.086,44.851,0</coordinates>
                </Point>
            </Placemark>
            <Placemark id="2012 Jun 1 06:56:20.24 UTC">
                <name>M 5.8 - 2012 Jun 1, NEAR N COAST OF PAPUA, INDONESIA</name>
                <magnitude>5.8</magnitude>
                <Point>
                    <coordinates>133.269,-0.72,0</coordinates>
                </Point>
            </Placemark>
            <Placemark id="2012 Jun 7 09:01:51.13 UTC">
                <name>M 5.8 - 2012 Jun 7, FIJI REGION</name>
                <magnitude>5.8</magnitude>
                <Point>
                    <coordinates>-176.34,-20.192,0</coordinates>
                </Point>
            </Placemark>
            <Placemark id="2012 Jun 29 15:31:46.66 UTC">
                <name>M 5.8 - 2012 Jun 29, SOUTH ATLANTIC OCEAN</name>
                <magnitude>5.8</magnitude>
                <Point>
                    <coordinates>-9.663,-24.747,0</coordinates>
                </Point>
            </Placemark>
            <Placemark id="2012 Jul 12 12:51:58.86 UTC">
                <name>M 5.8 - 2012 Jul 12, KURIL ISLANDS</name>
                <magnitude>5.8</magnitude>
                <Point>
                    <coordinates>151.665,45.452,0</coordinates>
                </Point>
            </Placemark>
            <Placemark id="2012 Jul 20 06:32:56.09 UTC">
                <name>M 5.8 - 2012 Jul 20, KURIL ISLANDS</name>
                <magnitude>5.8</magnitude>
                <Point>
                    <coordinates>156.132,49.354,0</coordinates>
                </Point>
            </Placemark>
            <Placemark id="2012 Aug 5 13:55:10.36 UTC">
                <name>M 5.8 - 2012 Aug 5, FIJI REGION</name>
                <magnitude>5.8</magnitude>
                <Point>
                    <coordinates>-178.358,-21.15,0</coordinates>
                </Point>
            </Placemark>
            <Placemark id="2012 Aug 16 13:24:44.36 UTC">
                <name>M 5.8 - 2012 Aug 16, SOUTHEAST OF EASTER ISLAND</name>
                <magnitude>5.8</magnitude>
                <Point>
                    <coordinates>-98.905,-36.429,0</coordinates>
                </Point>
            </Placemark>
            <Placemark id="2012 Aug 18 15:31:40.06 UTC">
                <name>M 5.8 - 2012 Aug 18, HALMAHERA, INDONESIA</name>
                <magnitude>5.8</magnitude>
                <Point>
                    <coordinates>128.697,2.645,0</coordinates>
                </Point>
            </Placemark>
            <Placemark id="2012 Sep 3 06:49:49.73 UTC">
                <name>M 5.8 - 2012 Sep 3, MORO GULF, MINDANAO, PHILIPPINES</name>
                <magnitude>5.8</magnitude>
                <Point>
                    <coordinates>123.875,6.61,0</coordinates>
                </Point>
            </Placemark>
            <Placemark id="2012 Sep 27 23:53:49.03 UTC">
                <name>M 5.8 - 2012 Sep 27, SOLOMON ISLANDS</name>
                <magnitude>5.8</magnitude>
                <Point>
                    <coordinates>157.456,-8.838,0</coordinates>
                </Point>
            </Placemark>
            <Placemark id="2012 Oct 14 04:58:04.93 UTC">
                <name>M 5.8 - 2012 Oct 14, SOLOMON ISLANDS</name>
                <magnitude>5.8</magnitude>
                <Point>
                    <coordinates>156.048,-7.145,0</coordinates>
                </Point>
            </Placemark>
            <Placemark id="2012 Oct 23 09:39:30.70 UTC">
                <name>M 5.8 - 2012 Oct 23, SOUTHEAST OF LOYALTY ISLANDS</name>
                <magnitude>5.8</magnitude>
                <Point>
                    <coordinates>171.691,-22.312,0</coordinates>
                </Point>
            </Placemark>
            <Placemark id="2012 Nov 11 10:54:41.35 UTC">
                <name>M 5.8 - 2012 Nov 11, MYANMAR</name>
                <magnitude>5.8</magnitude>
                <Point>
                    <coordinates>95.832,22.72,0</coordinates>
                </Point>
            </Placemark>
            <Placemark id="2012 Dec 4 01:42:48.46 UTC">
                <name>M 5.8 - 2012 Dec 4, SOUTHERN ALASKA</name>
                <magnitude>5.8</magnitude>
                <Point>
                    <coordinates>-150.76,61.237,0</coordinates>
                </Point>
            </Placemark>
            <Placemark id="2012 Dec 5 17:08:13.56 UTC">
                <name>M 5.8 - 2012 Dec 5, EASTERN IRAN</name>
                <magnitude>5.8</magnitude>
                <Point>
                    <coordinates>59.571,33.506,0</coordinates>
                </Point>
            </Placemark>
            <Placemark id="2012 Dec 14 16:52:38.24 UTC">
                <name>M 5.8 - 2012 Dec 14, FIJI REGION</name>
                <magnitude>5.8</magnitude>
                <Point>
                    <coordinates>-178.186,-15.307,0</coordinates>
                </Point>
            </Placemark>
            <Placemark id="2012 Jan 7 18:38:08.09 UTC">
                <name>M 5.7 - 2012 Jan 7, KERMADEC ISLANDS REGION</name>
                <magnitude>5.7</magnitude>
                <Point>
                    <coordinates>-176.935,-28.613,0</coordinates>
                </Point>
            </Placemark>
            <Placemark id="2012 Jan 17 12:55:34.72 UTC">
                <name>M 5.7 - 2012 Jan 17, SAMAR, PHILIPPINES</name>
                <magnitude>5.7</magnitude>
                <Point>
                    <coordinates>125.837,11.177,0</coordinates>
                </Point>
            </Placemark>
            <Placemark id="2012 Jan 19 05:58:38.79 UTC">
                <name>M 5.7 - 2012 Jan 19, SANTA CRUZ ISLANDS</name>
                <magnitude>5.7</magnitude>
                <Point>
                    <coordinates>165.57,-10.966,0</coordinates>
                </Point>
            </Placemark>
            <Placemark id="2012 Jan 20 20:32:53.44 UTC">
                <name>M 5.7 - 2012 Jan 20, FLORES REGION, INDONESIA</name>
                <magnitude>5.7</magnitude>
                <Point>
                    <coordinates>119.701,-8.406,0</coordinates>
                </Point>
            </Placemark>
            <Placemark id="2012 Feb 3 04:33:09.00 UTC">
                <name>M 5.7 - 2012 Feb 3, VANUATU</name>
                <magnitude>5.7</magnitude>
                <Point>
                    <coordinates>167.187,-17.463,0</coordinates>
                </Point>
            </Placemark>
            <Placemark id="2012 Feb 10 05:34:05.03 UTC">
                <name>M 5.7 - 2012 Feb 10, NEAR N COAST OF PAPUA, INDONESIA</name>
                <magnitude>5.7</magnitude>
                <Point>
                    <coordinates>132.691,-0.324,0</coordinates>
                </Point>
            </Placemark>
            <Placemark id="2012 Mar 4 12:49:02.44 UTC">
                <name>M 5.7 - 2012 Mar 4, SOUTHEAST OF LOYALTY ISLANDS</name>
                <magnitude>5.7</magnitude>
                <Point>
                    <coordinates>169.769,-21.529,0</coordinates>
                </Point>
            </Placemark>
            <Placemark id="2012 Mar 25 01:05:34.53 UTC">
                <name>M 5.7 - 2012 Mar 25, PACIFIC-ANTARCTIC RIDGE</name>
                <magnitude>5.7</magnitude>
                <Point>
                    <coordinates>-135.923,-54.576,0</coordinates>
                </Point>
            </Placemark>
            <Placemark id="2012 Apr 1 14:04:24.91 UTC">
                <name>M 5.7 - 2012 Apr 1, EASTERN HONSHU, JAPAN</name>
                <magnitude>5.7</magnitude>
                <Point>
                    <coordinates>140.957,37.116,0</coordinates>
                </Point>
            </Placemark>
            <Placemark id="2012 Apr 1 21:44:04.13 UTC">
                <name>M 5.7 - 2012 Apr 1, NEW IRELAND REGION, P.N.G.</name>
                <magnitude>5.7</magnitude>
                <Point>
                    <coordinates>153.427,-4.516,0</coordinates>
                </Point>
            </Placemark>
            <Placemark id="2012 Apr 11 11:53:36.16 UTC">
                <name>M 5.7 - 2012 Apr 11, NORTH INDIAN OCEAN</name>
                <magnitude>5.7</magnitude>
                <Point>
                    <coordinates>89.544,2.913,0</coordinates>
                </Point>
            </Placemark>
            <Placemark id="2012 Apr 13 10:10:01.20 UTC">
                <name>M 5.7 - 2012 Apr 13, NEAR EAST COAST OF HONSHU, JAPAN</name>
                <magnitude>5.7</magnitude>
                <Point>
                    <coordinates>141.152,36.988,0</coordinates>
                </Point>
            </Placemark>
            <Placemark id="2012 Apr 20 22:19:46.81 UTC">
                <name>M 5.7 - 2012 Apr 20, OFF W COAST OF NORTHERN SUMATRA</name>
                <magnitude>5.7</magnitude>
                <Point>
                    <coordinates>93.853,3.256,0</coordinates>
                </Point>
            </Placemark>
            <Placemark id="2012 Apr 21 01:19:28.46 UTC">
                <name>M 5.7 - 2012 Apr 21, SOUTHERN MID-ATLANTIC RIDGE</name>
                <magnitude>5.7</magnitude>
                <Point>
                    <coordinates>-16.181,-35.229,0</coordinates>
                </Point>
            </Placemark>
            <Placemark id="2012 Apr 23 21:21:44.86 UTC">
                <name>M 5.7 - 2012 Apr 23, MOLUCCA SEA</name>
                <magnitude>5.7</magnitude>
                <Point>
                    <coordinates>125.293,0.374,0</coordinates>
                </Point>
            </Placemark>
            <Placemark id="2012 Apr 25 07:42:23.38 UTC">
                <name>M 5.7 - 2012 Apr 25, NICOBAR ISLANDS, INDIA REGION</name>
                <magnitude>5.7</magnitude>
                <Point>
                    <coordinates>93.945,9.011,0</coordinates>
                </Point>
            </Placemark>
            <Placemark id="2012 Apr 29 08:09:04.34 UTC">
                <name>M 5.7 - 2012 Apr 29, OFF W COAST OF NORTHERN SUMATRA</name>
                <magnitude>5.7</magnitude>
                <Point>
                    <coordinates>94.509,2.704,0</coordinates>
                </Point>
            </Placemark>
            <Placemark id="2012 Apr 30 08:00:10.00 UTC">
                <name>M 5.7 - 2012 Apr 30, NORTH INDIAN OCEAN</name>
                <magnitude>5.7</magnitude>
                <Point>
                    <coordinates>89.598,1.757,0</coordinates>
                </Point>
            </Placemark>
            <Placemark id="2012 May 1 16:37:58.80 UTC">
                <name>M 5.7 - 2012 May 1, GUERRERO, MEXICO</name>
                <magnitude>5.7</magnitude>
                <Point>
                    <coordinates>-101.085,18.251,0</coordinates>
                </Point>
            </Placemark>
            <Placemark id="2012 May 5 20:23:31.16 UTC">
                <name>M 5.7 - 2012 May 5, TONGA</name>
                <magnitude>5.7</magnitude>
                <Point>
                    <coordinates>-174.227,-21.477,0</coordinates>
                </Point>
            </Placemark>
            <Placemark id="2012 May 12 23:28:43.57 UTC">
                <name>M 5.7 - 2012 May 12, TAJIKISTAN</name>
                <magnitude>5.7</magnitude>
                <Point>
                    <coordinates>70.354,38.612,0</coordinates>
                </Point>
            </Placemark>
            <Placemark id="2012 May 16 00:59:32.38 UTC">
                <name>M 5.7 - 2012 May 16, NEW BRITAIN REGION, P.N.G.</name>
                <magnitude>5.7</magnitude>
                <Point>
                    <coordinates>149.711,-5.504,0</coordinates>
                </Point>
            </Placemark>
            <Placemark id="2012 Jun 4 14:18:52.30 UTC">
                <name>M 5.7 - 2012 Jun 4, FIJI REGION</name>
                <magnitude>5.7</magnitude>
                <Point>
                    <coordinates>-177.919,-15.279,0</coordinates>
                </Point>
            </Placemark>
            <Placemark id="2012 Jun 11 05:29:11.51 UTC">
                <name>M 5.7 - 2012 Jun 11, HINDU KUSH REGION, AFGHANISTAN</name>
                <magnitude>5.7</magnitude>
                <Point>
                    <coordinates>69.351,36.023,0</coordinates>
                </Point>
            </Placemark>
            <Placemark id="2012 Jun 15 01:14:07.52 UTC">
                <name>M 5.7 - 2012 Jun 15, MINDANAO, PHILIPPINES</name>
                <magnitude>5.7</magnitude>
                <Point>
                    <coordinates>126.354,5.719,0</coordinates>
                </Point>
            </Placemark>
            <Placemark id="2012 Jun 17 03:43:10.05 UTC">
                <name>M 5.7 - 2012 Jun 17, SOLOMON ISLANDS</name>
                <magnitude>5.7</magnitude>
                <Point>
                    <coordinates>160.356,-8.511,0</coordinates>
                </Point>
            </Placemark>
            <Placemark id="2012 Jun 22 04:31:17.30 UTC">
                <name>M 5.7 - 2012 Jun 22, MACQUARIE ISLAND REGION</name>
                <magnitude>5.7</magnitude>
                <Point>
                    <coordinates>158.79,-54.36,0</coordinates>
                </Point>
            </Placemark>
            <Placemark id="2012 Jun 27 06:30:59.86 UTC">
                <name>M 5.7 - 2012 Jun 27, EL SALVADOR</name>
                <magnitude>5.7</magnitude>
                <Point>
                    <coordinates>-89.967,13.834,0</coordinates>
                </Point>
            </Placemark>
            <Placemark id="2012 Jul 2 23:31:37.91 UTC">
                <name>M 5.7 - 2012 Jul 2, NEAR COAST OF CENTRAL PERU</name>
                <magnitude>5.7</magnitude>
                <Point>
                    <coordinates>-75.598,-14.423,0</coordinates>
                </Point>
            </Placemark>
            <Placemark id="2012 Jul 7 03:35:28.58 UTC">
                <name>M 5.7 - 2012 Jul 7, NEW IRELAND REGION, P.N.G.</name>
                <magnitude>5.7</magnitude>
                <Point>
                    <coordinates>153.296,-4.651,0</coordinates>
                </Point>
            </Placemark>
            <Placemark id="2012 Jul 11 02:31:16.66 UTC">
                <name>M 5.7 - 2012 Jul 11, KURIL ISLANDS</name>
                <magnitude>5.7</magnitude>
                <Point>
                    <coordinates>151.424,45.401,0</coordinates>
                </Point>
            </Placemark>
            <Placemark id="2012 Jul 11 11:12:40.25 UTC">
                <name>M 5.7 - 2012 Jul 11, SOUTH OF FIJI ISLANDS</name>
                <magnitude>5.7</magnitude>
                <Point>
                    <coordinates>-177.362,-26.051,0</coordinates>
                </Point>
            </Placemark>
            <Placemark id="2012 Jul 12 14:00:34.34 UTC">
                <name>M 5.7 - 2012 Jul 12, HINDU KUSH REGION, AFGHANISTAN</name>
                <magnitude>5.7</magnitude>
                <Point>
                    <coordinates>70.906,36.527,0</coordinates>
                </Point>
            </Placemark>
            <Placemark id="2012 Jul 29 02:21:12.60 UTC">
                <name>M 5.7 - 2012 Jul 29, MYANMAR</name>
                <magnitude>5.7</magnitude>
                <Point>
                    <coordinates>94.299,22.935,0</coordinates>
                </Point>
            </Placemark>
            <Placemark id="2012 Aug 18 10:23:32.21 UTC">
                <name>M 5.7 - 2012 Aug 18, VANUATU REGION</name>
                <magnitude>5.7</magnitude>
                <Point>
                    <coordinates>172.379,-13.504,0</coordinates>
                </Point>
            </Placemark>
            <Placemark id="2012 Aug 18 17:45:02.27 UTC">
                <name>M 5.7 - 2012 Aug 18, TONGA</name>
                <magnitude>5.7</magnitude>
                <Point>
                    <coordinates>-173.042,-15.598,0</coordinates>
                </Point>
            </Placemark>
            <Placemark id="2012 Aug 24 04:43:48.35 UTC">
                <name>M 5.7 - 2012 Aug 24, KERMADEC ISLANDS REGION</name>
                <magnitude>5.7</magnitude>
                <Point>
                    <coordinates>-176.807,-27.311,0</coordinates>
                </Point>
            </Placemark>
            <Placemark id="2012 Sep 3 19:44:22.36 UTC">
                <name>M 5.7 - 2012 Sep 3, MINDANAO, PHILIPPINES</name>
                <magnitude>5.7</magnitude>
                <Point>
                    <coordinates>125.044,7.905,0</coordinates>
                </Point>
            </Placemark>
            <Placemark id="2012 Sep 6 23:33:06.26 UTC">
                <name>M 5.7 - 2012 Sep 6, CENTRAL EAST PACIFIC RISE</name>
                <magnitude>5.7</magnitude>
                <Point>
                    <coordinates>-105.891,-4.6,0</coordinates>
                </Point>
            </Placemark>
            <Placemark id="2012 Sep 8 06:54:18.57 UTC">
                <name>M 5.7 - 2012 Sep 8, MARIANA ISLANDS REGION</name>
                <magnitude>5.7</magnitude>
                <Point>
                    <coordinates>145.923,21.527,0</coordinates>
                </Point>
            </Placemark>
            <Placemark id="2012 Sep 8 20:29:31.21 UTC">
                <name>M 5.7 - 2012 Sep 8, COSTA RICA</name>
                <magnitude>5.7</magnitude>
                <Point>
                    <coordinates>-85.323,10.082,0</coordinates>
                </Point>
            </Placemark>
            <Placemark id="2012 Sep 15 16:32:21.51 UTC">
                <name>M 5.7 - 2012 Sep 15, SOUTH OF JAVA, INDONESIA</name>
                <magnitude>5.7</magnitude>
                <Point>
                    <coordinates>113.865,-10.732,0</coordinates>
                </Point>
            </Placemark>
            <Placemark id="2012 Sep 20 21:03:42.12 UTC">
                <name>M 5.7 - 2012 Sep 20, FIJI REGION</name>
                <magnitude>5.7</magnitude>
                <Point>
                    <coordinates>-178.513,-20.757,0</coordinates>
                </Point>
            </Placemark>
            <Placemark id="2012 Oct 3 13:32:34.94 UTC">
                <name>M 5.7 - 2012 Oct 3, KEPULAUAN BATU, INDONESIA</name>
                <magnitude>5.7</magnitude>
                <Point>
                    <coordinates>97.672,-0.429,0</coordinates>
                </Point>
            </Placemark>
            <Placemark id="2012 Oct 5 00:19:56.96 UTC">
                <name>M 5.7 - 2012 Oct 5, NORTHERN MID-ATLANTIC RIDGE</name>
                <magnitude>5.7</magnitude>
                <Point>
                    <coordinates>-46.457,17.479,0</coordinates>
                </Point>
            </Placemark>
            <Placemark id="2012 Oct 8 01:50:26.21 UTC">
                <name>M 5.7 - 2012 Oct 8, ANTOFAGASTA, CHILE</name>
                <magnitude>5.7</magnitude>
                <Point>
                    <coordinates>-68.165,-21.725,0</coordinates>
                </Point>
            </Placemark>
            <Placemark id="2012 Oct 14 09:41:58.95 UTC">
                <name>M 5.7 - 2012 Oct 14, KURIL ISLANDS</name>
                <magnitude>5.7</magnitude>
                <Point>
                    <coordinates>154.428,48.308,0</coordinates>
                </Point>
            </Placemark>
            <Placemark id="2012 Oct 29 15:29:50.39 UTC">
                <name>M 5.7 - 2012 Oct 29, MOLUCCA SEA</name>
                <magnitude>5.7</magnitude>
                <Point>
                    <coordinates>125.185,-0.142,0</coordinates>
                </Point>
            </Placemark>
            <Placemark id="2012 Nov 1 14:12:01.82 UTC">
                <name>M 5.7 - 2012 Nov 1, JAVA, INDONESIA</name>
                <magnitude>5.7</magnitude>
                <Point>
                    <coordinates>107.529,-6.762,0</coordinates>
                </Point>
            </Placemark>
            <Placemark id="2012 Nov 6 01:36:21.63 UTC">
                <name>M 5.7 - 2012 Nov 6, MINAHASA, SULAWESI, INDONESIA</name>
                <magnitude>5.7</magnitude>
                <Point>
                    <coordinates>122.2,1.374,0</coordinates>
                </Point>
            </Placemark>
            <Placemark id="2012 Nov 7 22:42:48.22 UTC">
                <name>M 5.7 - 2012 Nov 7, OFFSHORE GUATEMALA</name>
                <magnitude>5.7</magnitude>
                <Point>
                    <coordinates>-92.156,13.849,0</coordinates>
                </Point>
            </Placemark>
            <Placemark id="2012 Nov 14 05:21:42.47 UTC">
                <name>M 5.7 - 2012 Nov 14, NEGROS, PHILIPPINES</name>
                <magnitude>5.7</magnitude>
                <Point>
                    <coordinates>122.472,9.982,0</coordinates>
                </Point>
            </Placemark>
            <Placemark id="2012 Nov 27 02:59:06.52 UTC">
                <name>M 5.7 - 2012 Nov 27, SERAM, INDONESIA</name>
                <magnitude>5.7</magnitude>
                <Point>
                    <coordinates>129.219,-2.952,0</coordinates>
                </Point>
            </Placemark>
            <Placemark id="2012 Nov 30 11:20:38.43 UTC">
                <name>M 5.7 - 2012 Nov 30, TONGA</name>
                <magnitude>5.7</magnitude>
                <Point>
                    <coordinates>-175.595,-18.824,0</coordinates>
                </Point>
            </Placemark>
            <Placemark id="2012 Dec 7 19:50:23.43 UTC">
                <name>M 5.7 - 2012 Dec 7, EASTERN NEW GUINEA REG., P.N.G.</name>
                <magnitude>5.7</magnitude>
                <Point>
                    <coordinates>146.954,-7.661,0</coordinates>
                </Point>
            </Placemark>
            <Placemark id="2012 Dec 17 17:46:46.63 UTC">
                <name>M 5.7 - 2012 Dec 17, CENTRAL EAST PACIFIC RISE</name>
                <magnitude>5.7</magnitude>
                <Point>
                    <coordinates>-104.177,-4.028,0</coordinates>
                </Point>
            </Placemark>
            <Placemark id="2012 Dec 23 13:31:40.76 UTC">
                <name>M 5.7 - 2012 Dec 23, BLACK SEA, OFFSHORE GEORGIA</name>
                <magnitude>5.7</magnitude>
                <Point>
                    <coordinates>41.075,42.42,0</coordinates>
                </Point>
            </Placemark>
            <Placemark id="2012 Dec 29 07:59:41.10 UTC">
                <name>M 5.7 - 2012 Dec 29, BISMARCK SEA</name>
                <magnitude>5.7</magnitude>
                <Point>
                    <coordinates>148.899,-3.563,0</coordinates>
                </Point>
            </Placemark>
            <Placemark id="2012 Jan 5 01:13:40.43 UTC">
                <name>M 5.6 - 2012 Jan 5, TONGA</name>
                <magnitude>5.6</magnitude>
                <Point>
                    <coordinates>-173.543,-17.691,0</coordinates>
                </Point>
            </Placemark>
            <Placemark id="2012 Jan 13 16:02:23.03 UTC">
                <name>M 5.6 - 2012 Jan 13, SOUTH SANDWICH ISLANDS REGION</name>
                <magnitude>5.6</magnitude>
                <Point>
                    <coordinates>-27.073,-60.548,0</coordinates>
                </Point>
            </Placemark>
            <Placemark id="2012 Jan 16 03:59:44.59 UTC">
                <name>M 5.6 - 2012 Jan 16, SOUTH SHETLAND ISLANDS</name>
                <magnitude>5.6</magnitude>
                <Point>
                    <coordinates>-56.095,-60.752,0</coordinates>
                </Point>
            </Placemark>
            <Placemark id="2012 Jan 17 23:21:35.04 UTC">
                <name>M 5.6 - 2012 Jan 17, COQUIMBO, CHILE</name>
                <magnitude>5.6</magnitude>
                <Point>
                    <coordinates>-71.499,-31.655,0</coordinates>
                </Point>
            </Placemark>
            <Placemark id="2012 Jan 28 00:22:18.94 UTC">
                <name>M 5.6 - 2012 Jan 28, NEAR EAST COAST OF HONSHU, JAPAN</name>
                <magnitude>5.6</magnitude>
                <Point>
                    <coordinates>142.211,40.177,0</coordinates>
                </Point>
            </Placemark>
            <Placemark id="2012 Jan 28 04:43:41.03 UTC">
                <name>M 5.6 - 2012 Jan 28, SOUTHERN EAST PACIFIC RISE</name>
                <magnitude>5.6</magnitude>
                <Point>
                    <coordinates>-110.517,-36.793,0</coordinates>
                </Point>
            </Placemark>
            <Placemark id="2012 Feb 2 06:46:30.29 UTC">
                <name>M 5.6 - 2012 Feb 2, NEW BRITAIN REGION, P.N.G.</name>
                <magnitude>5.6</magnitude>
                <Point>
                    <coordinates>149.774,-6.563,0</coordinates>
                </Point>
            </Placemark>
            <Placemark id="2012 Feb 2 09:32:16.88 UTC">
                <name>M 5.6 - 2012 Feb 2, NEW BRITAIN REGION, P.N.G.</name>
                <magnitude>5.6</magnitude>
                <Point>
                    <coordinates>149.718,-6.586,0</coordinates>
                </Point>
            </Placemark>
            <Placemark id="2012 Feb 4 13:09:23.17 UTC">
                <name>M 5.6 - 2012 Feb 4, SAMAR, PHILIPPINES</name>
                <magnitude>5.6</magnitude>
                <Point>
                    <coordinates>125.754,11.872,0</coordinates>
                </Point>
            </Placemark>
            <Placemark id="2012 Feb 4 20:05:31.71 UTC">
                <name>M 5.6 - 2012 Feb 4, VANCOUVER ISLAND, CANADA REGION</name>
                <magnitude>5.6</magnitude>
                <Point>
                    <coordinates>-127.906,48.887,0</coordinates>
                </Point>
            </Placemark>
            <Placemark id="2012 Feb 6 04:19:59.91 UTC">
                <name>M 5.6 - 2012 Feb 6, NEGROS- CEBU REG, PHILIPPINES</name>
                <magnitude>5.6</magnitude>
                <Point>
                    <coordinates>123.227,10.092,0</coordinates>
                </Point>
            </Placemark>
            <Placemark id="2012 Feb 11 02:58:17.00 UTC">
                <name>M 5.6 - 2012 Feb 11, OFFSHORE BIO-BIO, CHILE</name>
                <magnitude>5.6</magnitude>
                <Point>
                    <coordinates>-73.884,-37.456,0</coordinates>
                </Point>
            </Placemark>
            <Placemark id="2012 Feb 13 21:07:02.77 UTC">
                <name>M 5.6 - 2012 Feb 13, NORTHERN CALIFORNIA</name>
                <magnitude>5.6</magnitude>
                <Point>
                    <coordinates>-123.79,41.143,0</coordinates>
                </Point>
            </Placemark>
            <Placemark id="2012 Feb 20 19:09:36.29 UTC">
                <name>M 5.6 - 2012 Feb 20, OFFSHORE CHIAPAS, MEXICO</name>
                <magnitude>5.6</magnitude>
                <Point>
                    <coordinates>-92.779,14.276,0</coordinates>
                </Point>
            </Placemark>
            <Placemark id="2012 Feb 26 05:24:59.26 UTC">
                <name>M 5.6 - 2012 Feb 26, SOUTH OF KERMADEC ISLANDS</name>
                <magnitude>5.6</magnitude>
                <Point>
                    <coordinates>-177.73,-32.495,0</coordinates>
                </Point>
            </Placemark>
            <Placemark id="2012 Feb 28 15:07:35.04 UTC">
                <name>M 5.6 - 2012 Feb 28, BONIN ISLANDS, JAPAN REGION</name>
                <magnitude>5.6</magnitude>
                <Point>
                    <coordinates>139.391,28.2,0</coordinates>
                </Point>
            </Placemark>
            <Placemark id="2012 Feb 29 14:32:47.83 UTC">
                <name>M 5.6 - 2012 Feb 29, NEAR EAST COAST OF HONSHU, JAPAN</name>
                <magnitude>5.6</magnitude>
                <Point>
                    <coordinates>141.001,35.2,0</coordinates>
                </Point>
            </Placemark>
            <Placemark id="2012 Mar 5 23:06:30.88 UTC">
                <name>M 5.6 - 2012 Mar 5, MASBATE REGION, PHILIPPINES</name>
                <magnitude>5.6</magnitude>
                <Point>
                    <coordinates>123.7,12.354,0</coordinates>
                </Point>
            </Placemark>
            <Placemark id="2012 Mar 7 12:00:46.01 UTC">
                <name>M 5.6 - 2012 Mar 7, PAPUA, INDONESIA</name>
                <magnitude>5.6</magnitude>
                <Point>
                    <coordinates>138.888,-2.814,0</coordinates>
                </Point>
            </Placemark>
            <Placemark id="2012 Mar 12 06:06:40.64 UTC">
                <name>M 5.6 - 2012 Mar 12, NORTHWESTERN KASHMIR</name>
                <magnitude>5.6</magnitude>
                <Point>
                    <coordinates>73.152,36.741,0</coordinates>
                </Point>
            </Placemark>
            <Placemark id="2012 Mar 14 10:57:40.10 UTC">
                <name>M 5.6 - 2012 Mar 14, OFF EAST COAST OF HONSHU, JAPAN</name>
                <magnitude>5.6</magnitude>
                <Point>
                    <coordinates>144.806,40.755,0</coordinates>
                </Point>
            </Placemark>
            <Placemark id="2012 Mar 26 16:58:10.63 UTC">
                <name>M 5.6 - 2012 Mar 26, SOUTHWEST INDIAN RIDGE</name>
                <magnitude>5.6</magnitude>
                <Point>
                    <coordinates>60.653,-30.04,0</coordinates>
                </Point>
            </Placemark>
            <Placemark id="2012 Apr 14 15:13:14.14 UTC">
                <name>M 5.6 - 2012 Apr 14, KURIL ISLANDS</name>
                <magnitude>5.6</magnitude>
                <Point>
                    <coordinates>155.651,49.38,0</coordinates>
                </Point>
            </Placemark>
            <Placemark id="2012 Apr 17 08:51:24.92 UTC">
                <name>M 5.6 - 2012 Apr 17, KERMADEC ISLANDS REGION</name>
                <magnitude>5.6</magnitude>
                <Point>
                    <coordinates>-177.236,-31.894,0</coordinates>
                </Point>
            </Placemark>
            <Placemark id="2012 Apr 22 13:11:19.70 UTC">
                <name>M 5.6 - 2012 Apr 22, WEST OF MACQUARIE ISLAND</name>
                <magnitude>5.6</magnitude>
                <Point>
                    <coordinates>140.29,-52.867,0</coordinates>
                </Point>
            </Placemark>
            <Placemark id="2012 Apr 23 22:40:22.44 UTC">
                <name>M 5.6 - 2012 Apr 23, KURIL ISLANDS</name>
                <magnitude>5.6</magnitude>
                <Point>
                    <coordinates>154.739,48.397,0</coordinates>
                </Point>
            </Placemark>
            <Placemark id="2012 Apr 24 09:50:58.39 UTC">
                <name>M 5.6 - 2012 Apr 24, CARLSBERG RIDGE</name>
                <magnitude>5.6</magnitude>
                <Point>
                    <coordinates>61.511,5.649,0</coordinates>
                </Point>
</Placemark>
</Folder>
</Document>
</kml>
